{
  "image_width": 2526,
  "image_height": 1786,
  "source_image_url": "/static/assets/board-source-updated.png",
  "lon_min": -180.0,
  "lon_max": 180.0,
  "lat_min": -90.0,
  "lat_max": 90.0,
  "anchors": [
    {
      "id": "van",
      "label": "VAN",
      "x": 387.79,
      "y": 534.62,
      "lat": 49.2827,
      "lon": -123.1207
    },
    {
      "id": "lax",
      "label": "LAX",
      "x": 306.38,
      "y": 620.33,
      "lat": 33.7405,
      "lon": -118.2755
    },
    {
      "id": "hou",
      "label": "HOU",
      "x": 525.98,
      "y": 626.76,
      "lat": 29.7297,
      "lon": -95.2647
    },
    {
      "id": "nyc",
      "label": "NYC",
      "x": 675.96,
      "y": 561.41,
      "lat": 40.684,
      "lon": -74.0062
    },
    {
      "id": "maz",
      "label": "MAZ",
      "x": 440.28,
      "y": 776.75,
      "lat": 23.2494,
      "lon": -106.4111
    },
    {
      "id": "pan",
      "label": "PAN",
      "x": 575.26,
      "y": 790.68,
      "lat": 9.1012,
      "lon": -79.4029
    },
    {
      "id": "gua",
      "label": "GUA",
      "x": 583.83,
      "y": 953.53,
      "lat": -2.1709,
      "lon": -79.9224
    },
    {
      "id": "car",
      "label": "CAR",
      "x": 666.32,
      "y": 791.75,
      "lat": 10.391,
      "lon": -75.4794
    },
    {
      "id": "rec",
      "label": "REC",
      "x": 842.0,
      "y": 954.6,
      "lat": -8.0476,
      "lon": -34.877
    },
    {
      "id": "rio",
      "label": "RIO",
      "x": 906.27,
      "y": 1109.96,
      "lat": -22.9068,
      "lon": -43.1729
    },
    {
      "id": "val",
      "label": "VAL",
      "x": 650.25,
      "y": 1165.67,
      "lat": -33.0472,
      "lon": -71.6127
    },
    {
      "id": "bue",
      "label": "BUE",
      "x": 819.5,
      "y": 1252.45,
      "lat": -34.6037,
      "lon": -58.3816
    },
    {
      "id": "ush",
      "label": "USH",
      "x": 734.88,
      "y": 1357.45,
      "lat": -54.8019,
      "lon": -68.303
    },
    {
      "id": "spe",
      "label": "SPE",
      "x": 1342.27,
      "y": 391.06,
      "lat": 59.9311,
      "lon": 30.3609
    },
    {
      "id": "ham",
      "label": "HAM",
      "x": 1279.07,
      "y": 361.06,
      "lat": 53.5511,
      "lon": 9.9937
    },
    {
      "id": "lon",
      "label": "LON",
      "x": 1160.16,
      "y": 438.2,
      "lat": 51.5074,
      "lon": -0.1278
    },
    {
      "id": "gib",
      "label": "GIB",
      "x": 1083.03,
      "y": 628.9,
      "lat": 36.1408,
      "lon": -5.3536
    },
    {
      "id": "gen",
      "label": "GEN",
      "x": 1239.43,
      "y": 628.9,
      "lat": 38.425,
      "lon": -15.899
    },
    {
      "id": "ate",
      "label": "ATE",
      "x": 1296.21,
      "y": 661.04,
      "lat": 37.9838,
      "lon": 23.7275
    },
    {
      "id": "suz",
      "label": "SUZ",
      "x": 1350.84,
      "y": 702.83,
      "lat": 29.9668,
      "lon": 32.5498
    },
    {
      "id": "dub",
      "label": "DUB",
      "x": 1524.38,
      "y": 711.4,
      "lat": 25.2048,
      "lon": 55.2708
    },
    {
      "id": "jed",
      "label": "JED",
      "x": 1422.62,
      "y": 775.68,
      "lat": 21.4858,
      "lon": 39.1925
    },
    {
      "id": "mum",
      "label": "MUM",
      "x": 1688.28,
      "y": 778.9,
      "lat": 19.076,
      "lon": 72.8777
    },
    {
      "id": "dar",
      "label": "DAR",
      "x": 1424.76,
      "y": 923.53,
      "lat": -6.7924,
      "lon": 39.2083
    },
    {
      "id": "lag",
      "label": "LAG",
      "x": 1197.65,
      "y": 846.39,
      "lat": 6.5244,
      "lon": 3.3792
    },
    {
      "id": "dak",
      "label": "DAK",
      "x": 1085.17,
      "y": 845.32,
      "lat": 14.7167,
      "lon": -17.4677
    },
    {
      "id": "cap",
      "label": "CAP",
      "x": 1268.36,
      "y": 1203.17,
      "lat": -33.9249,
      "lon": 18.4241
    },
    {
      "id": "sri",
      "label": "SRI",
      "x": 1758.99,
      "y": 916.03,
      "lat": 6.9271,
      "lon": 79.8612
    },
    {
      "id": "sin",
      "label": "SIN",
      "x": 1861.83,
      "y": 917.11,
      "lat": 1.2644,
      "lon": 103.82
    },
    {
      "id": "hkg",
      "label": "HKG",
      "x": 1861.83,
      "y": 775.68,
      "lat": 22.3193,
      "lon": 114.1694
    },
    {
      "id": "sha",
      "label": "SHA",
      "x": 1985.02,
      "y": 749.97,
      "lat": 31.2304,
      "lon": 121.4737
    },
    {
      "id": "tok",
      "label": "TOK",
      "x": 2121.07,
      "y": 707.11,
      "lat": 35.6762,
      "lon": 139.6503
    },
    {
      "id": "man",
      "label": "MAN",
      "x": 2019.3,
      "y": 828.18,
      "lat": 14.5995,
      "lon": 120.9842
    },
    {
      "id": "jak",
      "label": "JAK",
      "x": 1896.11,
      "y": 1024.24,
      "lat": -6.2088,
      "lon": 106.8456
    },
    {
      "id": "syd",
      "label": "SYD",
      "x": 2178.92,
      "y": 1223.52,
      "lat": -33.8688,
      "lon": 151.2093
    },
    {
      "id": "auc",
      "label": "AUC",
      "x": 2348.17,
      "y": 1246.02,
      "lat": -36.8485,
      "lon": 174.7633
    }
  ]
}
